{"results":[{"fsq_id":"4c464298342c1b8d4b2ab689","categories":[{"id":10027,"name":"Museum","short_name":"Museum","plural_name":"Museums","icon":{"prefix":"https://ss3.4sqi.net/img/categories_v2/arts_entertainment/museum_","suffix":".png"}},{"id":16016,"name":"Fountain","short_name":"Fountain","plural_name":"Fountains","icon":{"prefix":"https://ss3.4sqi.net/img/categories_v2/parks_outdoors/plaza_","suffix":".png"}},{"id":16026,"name":"Monument","short_name":"Monument","plural_name":"Monuments","icon":{"prefix":"https://ss3.4sqi.net/img/categories_v2/building/government_monument_","suffix":".png"}},{"id":16041,"name":"Plaza","short_name":"Plaza","plural_name":"Plazas","icon":{"prefix":"https://ss3.4sqi.net/img/categories_v2/parks_outdoors/plaza_","suffix":".png"}}],"chains":[],"closed_bucket":"VeryLikelyOpen","distance":52,"geocodes":{"main":{"latitude":45.508602,"longitude":-73.55438},"roof":{"latitude":45.508602,"longitude":-73.55438}},"link":"/v3/places/4c464298342c1b8d4b2ab689","location":{"country":"CA","formatted_address":"Montréal QC","locality":"Montréal","region":"QC"},"name":"Place Vauquelin","related_places":{},"timezone":"America/Toronto"},{"fsq_id":"4ad4c06bf964a520b2f920e3","categories":[{"id":16041,"name":"Plaza","short_name":"Plaza","plural_name":"Plazas","icon":{"prefix":"https://ss3.4sqi.net/img/categories_v2/parks_outdoors/plaza_","suffix":".png"}}],"chains":[],"closed_bucket":"VeryLikelyOpen","distance":98,"geocodes":{"main":{"latitude":45.507998,"longitude":-73.553343}},"link":"/v3/places/4ad4c06bf964a520b2f920e3","location":{"country":"CA","formatted_address":"Montréal QC H2Y 2E2","locality":"Montréal","postcode":"H2Y 2E2","region":"QC"},"name":"Place Jacques Cartier","related_places":{"children":[{"fsq_id":"5627d3d2498e89ac4042aa73","categories":[{"id":17134,"name":"Tobacco Store","short_name":"Tobacco Store","plural_name":"Tobacco Stores","icon":{"prefix":"https://ss3.4sqi.net/img/categories_v2/shops/tobacco_","suffix":".png"}}],"name":"Tabagie Indigo"}]},"timezone":"America/Toronto"},{"fsq_id":"4b089ccaf964a5206e0f23e3","categories":[{"id":13148,"name":"French Restaurant","short_name":"French","plural_name":"French Restaurants","icon":{"prefix":"https://ss3.4sqi.net/img/categories_v2/food/french_","suffix":".png"}}],"chains":[],"closed_bucket":"VeryLikelyOpen","distance":105,"geocodes":{"main":{"latitude":45.50887,"longitude":-73.552354},"roof":{"latitude":45.50887,"longitude":-73.552354}},"link":"/v3/places/4b089ccaf964a5206e0f23e3","location":{"address":"423 Saint-Claude Rue","country":"CA","formatted_address":"423 Saint-Claude Rue, Montréal QC H2Y 3B6","locality":"Montréal","postcode":"H2Y 3B6","region":"QC"},"name":"Le Club Chasse et Pêche","related_places":{},"timezone":"America/Toronto"},{"fsq_id":"56b382a1498ef9af56292a00","categories":[{"id":13034,"name":"Café","short_name":"Café","plural_name":"Cafés","icon":{"prefix":"https://ss3.4sqi.net/img/categories_v2/food/cafe_","suffix":".png"}},{"id":13035,"name":"Coffee Shop","short_name":"Coffee Shop","plural_name":"Coffee Shops","icon":{"prefix":"https://ss3.4sqi.net/img/categories_v2/food/coffeeshop_","suffix":".png"}},{"id":13065,"name":"Restaurant","short_name":"Restaurant","plural_name":"Restaurants","icon":{"prefix":"https://ss3.4sqi.net/img/categories_v2/food/default_","suffix":".png"}}],"chains":[],"closed_bucket":"VeryLikelyOpen","distance":155,"geocodes":{"drop_off":{"latitude":45.50978,"longitude":-73.552818},"main":{"latitude":45.509659,"longitude":-73.552669},"roof":{"latitude":45.509659,"longitude":-73.552669}},"link":"/v3/places/56b382a1498ef9af56292a00","location":{"address":"350 Notre-Dame Rue E","address_extended":"Suite 1","country":"CA","cross_street":"Bonsecours","formatted_address":"350 Notre-Dame Rue E (Bonsecours), Montréal QC H2Y 1C7","locality":"Montréal","postcode":"H2Y 1C7","region":"QC"},"name":"Café de' Mercanti - Old Montreal","related_places":{},"timezone":"America/Toronto"},{"fsq_id":"57956471cd101a68f1b0eb74","categories":[{"id":13034,"name":"Café","short_name":"Café","plural_name":"Cafés","icon":{"prefix":"https://ss3.4sqi.net/img/categories_v2/food/cafe_","suffix":".png"}},{"id":13035,"name":"Coffee Shop","short_name":"Coffee Shop","plural_name":"Coffee Shops","icon":{"prefix":"https://ss3.4sqi.net/img/categories_v2/food/coffeeshop_","suffix":".png"}},{"id":13065,"name":"Restaurant","short_name":"Restaurant","plural_name":"Restaurants","icon":{"prefix":"https://ss3.4sqi.net/img/categories_v2/food/default_","suffix":".png"}}],"chains":[],"closed_bucket":"VeryLikelyOpen","distance":181,"geocodes":{"drop_off":{"latitude":45.507117,"longitude":-73.553329},"main":{"latitude":45.507261,"longitude":-73.553272},"roof":{"latitude":45.507261,"longitude":-73.553272}},"link":"/v3/places/57956471cd101a68f1b0eb74","location":{"address":"419 Saint-Vincent Rue","country":"CA","cross_street":"Rue Saint-Amable","formatted_address":"419 Saint-Vincent Rue (Rue Saint-Amable), Montréal QC H2Y 3A6","locality":"Montréal","postcode":"H2Y 3A6","region":"QC"},"name":"Café Olimpico","related_places":{"parent":{"fsq_id":"56bd61a3498ed7d2815c2a08","categories":[{"id":19014,"name":"Hotel","short_name":"Hotel","plural_name":"Hotels","icon":{"prefix":"https://ss3.4sqi.net/img/categories_v2/travel/hotel_","suffix":".png"}}],"name":"Hotel William Gray"}},"timezone":"America/Toronto"},{"fsq_id":"57e2f1e3498ea815291bae31","categories":[{"id":13021,"name":"Speakeasy","short_name":"Speakeasy","plural_name":"Speakeasies","icon":{"prefix":"https://ss3.4sqi.net/img/categories_v2/nightlife/secretbar_","suffix":".png"}},{"id":13065,"name":"Restaurant","short_name":"Restaurant","plural_name":"Restaurants","icon":{"prefix":"https://ss3.4sqi.net/img/categories_v2/food/default_","suffix":".png"}}],"chains":[],"closed_bucket":"VeryLikelyOpen","distance":194,"geocodes":{"drop_off":{"latitude":45.507018,"longitude":-73.55278},"main":{"latitude":45.507097,"longitude":-73.552928},"roof":{"latitude":45.507097,"longitude":-73.552928}},"link":"/v3/places/57e2f1e3498ea815291bae31","location":{"address":"155 Saint-Paul Rue E","country":"CA","formatted_address":"155 Saint-Paul Rue E, Montréal QC H2Y 1G8","locality":"Montréal","postcode":"H2Y 1G8","region":"QC"},"name":"Cold Room","related_places":{},"timezone":"America/Toronto"},{"fsq_id":"55777789498e80fb292f9b8a","categories":[{"id":13018,"name":"Pub","short_name":"Pub","plural_name":"Pubs","icon":{"prefix":"https://ss3.4sqi.net/img/categories_v2/nightlife/pub_","suffix":".png"}},{"id":13029,"name":"Brewery","short_name":"Brewery","plural_name":"Breweries","icon":{"prefix":"https://ss3.4sqi.net/img/categories_v2/food/brewery_","suffix":".png"}},{"id":13065,"name":"Restaurant","short_name":"Restaurant","plural_name":"Restaurants","icon":{"prefix":"https://ss3.4sqi.net/img/categories_v2/food/default_","suffix":".png"}}],"chains":[],"closed_bucket":"VeryLikelyOpen","distance":204,"geocodes":{"main":{"latitude":45.509457,"longitude":-73.551404},"roof":{"latitude":45.509457,"longitude":-73.551404}},"link":"/v3/places/55777789498e80fb292f9b8a","location":{"address":"380 Saint Paul Rue E","country":"CA","cross_street":"coin Bonsecours","formatted_address":"380 Saint Paul Rue E (coin Bonsecours), Montréal QC H2Y 1H2","locality":"Montréal","postcode":"H2Y 1H2","region":"QC"},"name":"Pub BreWskey","related_places":{"parent":{"fsq_id":"4adb8ad3f964a520cc2821e3","categories":[{"id":12000,"name":"Community and Government","short_name":"Community and Government","plural_name":"Communities and Government","icon":{"prefix":"https://ss3.4sqi.net/img/categories_v2/building/default_","suffix":".png"}}],"name":"Marché Bonsecours"},"children":[]},"timezone":"America/Toronto"},{"fsq_id":"4f359a52e4b0571dc57ab6df","categories":[{"id":17000,"name":"Retail","short_name":"Retail","plural_name":"Retail","icon":{"prefix":"https://ss3.4sqi.net/img/categories_v2/shops/default_","suffix":".png"}}],"chains":[],"closed_bucket":"LikelyOpen","distance":212,"geocodes":{"main":{"latitude":45.505205,"longitude":-73.553788},"roof":{"latitude":45.505205,"longitude":-73.553788}},"link":"/v3/places/4f359a52e4b0571dc57ab6df","location":{"address":"20 Saint-Paul Rue O","country":"CA","cross_street":"Boulevard St-Laurent","formatted_address":"20 Saint-Paul Rue O (Boulevard St-Laurent), Montréal QC H2Y 1Y7","locality":"Montréal","postcode":"H2Y 1Y7","region":"QC"},"name":"Quebec Fine Crafts Boutique (Boutique Métiers d'Arts)","related_places":{},"timezone":"America/Toronto"},{"fsq_id":"4b6b5538f964a5207e012ce3","categories":[{"id":13065,"name":"Restaurant","short_name":"Restaurant","plural_name":"Restaurants","icon":{"prefix":"https://ss3.4sqi.net/img/categories_v2/food/default_","suffix":".png"}}],"chains":[],"closed_bucket":"VeryLikelyOpen","distance":304,"geocodes":{"drop_off":{"latitude":45.505953,"longitude":-73.553527},"main":{"latitude":45.50606,"longitude":-73.55367},"roof":{"latitude":45.50606,"longitude":-73.55367}},"link":"/v3/places/4b6b5538f964a5207e012ce3","location":{"address":"25 Saint Paul St E","country":"CA","formatted_address":"25 Saint Paul St E, Montréal QC H2Y 1G2","locality":"Montréal","postcode":"H2Y 1G2","region":"QC"},"name":"The Keg Steakhouse + Bar","related_places":{},"timezone":"America/Toronto"},{"fsq_id":"4bbd2cf4f57ba593d0d5adb9","categories":[{"id":13064,"name":"Pizzeria","short_name":"Pizza","plural_name":"Pizzerias","icon":{"prefix":"https://ss3.4sqi.net/img/categories_v2/food/pizza_","suffix":".png"}},{"id":13068,"name":"American Restaurant","short_name":"American","plural_name":"American Restaurants","icon":{"prefix":"https://ss3.4sqi.net/img/categories_v2/food/default_","suffix":".png"}},{"id":13383,"name":"Steakhouse","short_name":"Steakhouse","plural_name":"Steakhouses","icon":{"prefix":"https://ss3.4sqi.net/img/categories_v2/food/steakhouse_","suffix":".png"}}],"chains":[],"closed_bucket":"VeryLikelyOpen","distance":280,"geocodes":{"drop_off":{"latitude":45.506072,"longitude":-73.553439},"main":{"latitude":45.506175,"longitude":-73.553577},"roof":{"latitude":45.506175,"longitude":-73.553577}},"link":"/v3/places/4bbd2cf4f57ba593d0d5adb9","location":{"address":"39 Saint-Paul Rue E","country":"CA","cross_street":"St-Gabriel","formatted_address":"39 Saint-Paul Rue E (St-Gabriel), Montreal QC H2Y 1G2","locality":"Montreal","postcode":"H2Y 1G2","region":"QC"},"name":"Vieux-Port Steakhouse","related_places":{},"timezone":"America/Toronto"}],"context":{"geo_bounds":{"circle":{"center":{"latitude":45.508693,"longitude":-73.553928},"radius":1000}}}}